{
"type": "FeatureCollection",
"name": "maule",
"crs": { "type": "name", "properties": { "name": "urn:ogc:def:crs:OGC:1.3:CRS84" } },
"features": [
{ "type": "Feature", "properties": { "NOMBRE": "TALCA", "CATEGORIA": "Cd", "POB_TOT": 189505.0, "HOM_TOT": 90581.0, "MUJ_TOT": 98924.0, "VIV_TOT": 56792.0 }, "geometry": { "type": "Point", "coordinates": [ -71.661999, -35.432349 ] } },
{ "type": "Feature", "properties": { "NOMBRE": "PANGUILEMO", "CATEGORIA": "Pb", "POB_TOT": 1819.0, "HOM_TOT": 888.0, "MUJ_TOT": 931.0, "VIV_TOT": 527.0 }, "geometry": { "type": "Point", "coordinates": [ -71.596878, -35.366472 ] } },
{ "type": "Feature", "properties": { "NOMBRE": "HUILQUILEMU", "CATEGORIA": "Pb", "POB_TOT": 2431.0, "HOM_TOT": 1227.0, "MUJ_TOT": 1204.0, "VIV_TOT": 628.0 }, "geometry": { "type": "Point", "coordinates": [ -71.564319, -35.447493 ] } },
{ "type": "Feature", "properties": { "NOMBRE": "CONSTITUCION", "CATEGORIA": "Cd", "POB_TOT": 33914.0, "HOM_TOT": 16924.0, "MUJ_TOT": 16990.0, "VIV_TOT": 9659.0 }, "geometry": { "type": "Point", "coordinates": [ -72.412391, -35.335426 ] } },
{ "type": "Feature", "properties": { "NOMBRE": "SANTA OLGA", "CATEGORIA": "Pb", "POB_TOT": 2612.0, "HOM_TOT": 1327.0, "MUJ_TOT": 1285.0, "VIV_TOT": 714.0 }, "geometry": { "type": "Point", "coordinates": [ -72.333641, -35.427048 ] } },
{ "type": "Feature", "properties": { "NOMBRE": "LOS PELLINES", "CATEGORIA": "Pb", "POB_TOT": 676.0, "HOM_TOT": 355.0, "MUJ_TOT": 321.0, "VIV_TOT": 878.0 }, "geometry": { "type": "Point", "coordinates": [ -72.494926, -35.469452 ] } },
{ "type": "Feature", "properties": { "NOMBRE": "CUREPTO", "CATEGORIA": "Pb", "POB_TOT": 3157.0, "HOM_TOT": 1592.0, "MUJ_TOT": 1565.0, "VIV_TOT": 1051.0 }, "geometry": { "type": "Point", "coordinates": [ -72.020157, -35.096149 ] } },
{ "type": "Feature", "properties": { "NOMBRE": "EMPEDRADO", "CATEGORIA": "Pb", "POB_TOT": 2499.0, "HOM_TOT": 1291.0, "MUJ_TOT": 1208.0, "VIV_TOT": 853.0 }, "geometry": { "type": "Point", "coordinates": [ -72.281394, -35.592119 ] } },
{ "type": "Feature", "properties": { "NOMBRE": "MAULE", "CATEGORIA": "Pb", "POB_TOT": 3967.0, "HOM_TOT": 2005.0, "MUJ_TOT": 1962.0, "VIV_TOT": 1345.0 }, "geometry": { "type": "Point", "coordinates": [ -71.695315, -35.520942 ] } },
{ "type": "Feature", "properties": { "NOMBRE": "CULENAR", "CATEGORIA": "Pb", "POB_TOT": 217.0, "HOM_TOT": 103.0, "MUJ_TOT": 114.0, "VIV_TOT": 116.0 }, "geometry": { "type": "Point", "coordinates": [ -71.692287, -35.458094 ] } },
{ "type": "Feature", "properties": { "NOMBRE": "VILLA FRANCIA", "CATEGORIA": "Cd", "POB_TOT": 1432.0, "HOM_TOT": 731.0, "MUJ_TOT": 701.0, "VIV_TOT": 469.0 }, "geometry": { "type": "Point", "coordinates": [ -71.702888, -35.449764 ] } },
{ "type": "Feature", "properties": { "NOMBRE": "CHACARILLAS", "CATEGORIA": "Pb", "POB_TOT": 1123.0, "HOM_TOT": 590.0, "MUJ_TOT": 533.0, "VIV_TOT": 316.0 }, "geometry": { "type": "Point", "coordinates": [ -71.688501, -35.498226 ] } },
{ "type": "Feature", "properties": { "NOMBRE": "PELARCO", "CATEGORIA": "Pb", "POB_TOT": 1822.0, "HOM_TOT": 882.0, "MUJ_TOT": 940.0, "VIV_TOT": 577.0 }, "geometry": { "type": "Point", "coordinates": [ -71.446951, -35.383887 ] } },
{ "type": "Feature", "properties": { "NOMBRE": "PENCAHUE", "CATEGORIA": "Pb", "POB_TOT": 2037.0, "HOM_TOT": 1056.0, "MUJ_TOT": 981.0, "VIV_TOT": 527.0 }, "geometry": { "type": "Point", "coordinates": [ -71.807382, -35.392217 ] } },
{ "type": "Feature", "properties": { "NOMBRE": "CUMPEO", "CATEGORIA": "Pb", "POB_TOT": 2651.0, "HOM_TOT": 1347.0, "MUJ_TOT": 1304.0, "VIV_TOT": 836.0 }, "geometry": { "type": "Point", "coordinates": [ -71.256893, -35.281664 ] } },
{ "type": "Feature", "properties": { "NOMBRE": "SAN CLEMENTE", "CATEGORIA": "Cd", "POB_TOT": 13398.0, "HOM_TOT": 6466.0, "MUJ_TOT": 6932.0, "VIV_TOT": 3604.0 }, "geometry": { "type": "Point", "coordinates": [ -71.487841, -35.534572 ] } },
{ "type": "Feature", "properties": { "NOMBRE": "SAN RAFAEL", "CATEGORIA": "Pb", "POB_TOT": 3482.0, "HOM_TOT": 1719.0, "MUJ_TOT": 1763.0, "VIV_TOT": 1044.0 }, "geometry": { "type": "Point", "coordinates": [ -71.523429, -35.309681 ] } },
{ "type": "Feature", "properties": { "NOMBRE": "CAUQUENES", "CATEGORIA": "Cd", "POB_TOT": 30771.0, "HOM_TOT": 14483.0, "MUJ_TOT": 16288.0, "VIV_TOT": 9602.0 }, "geometry": { "type": "Point", "coordinates": [ -72.320012, -35.966937 ] } },
{ "type": "Feature", "properties": { "NOMBRE": "CHANCO", "CATEGORIA": "Pb", "POB_TOT": 4012.0, "HOM_TOT": 1944.0, "MUJ_TOT": 2068.0, "VIV_TOT": 1154.0 }, "geometry": { "type": "Point", "coordinates": [ -72.534301, -35.737503 ] } },
{ "type": "Feature", "properties": { "NOMBRE": "PELLUHUE", "CATEGORIA": "Pb", "POB_TOT": 3208.0, "HOM_TOT": 1598.0, "MUJ_TOT": 1610.0, "VIV_TOT": 2186.0 }, "geometry": { "type": "Point", "coordinates": [ -72.576705, -35.815496 ] } },
{ "type": "Feature", "properties": { "NOMBRE": "QUILICURA", "CATEGORIA": "Pb", "POB_TOT": 669.0, "HOM_TOT": 359.0, "MUJ_TOT": 310.0, "VIV_TOT": 351.0 }, "geometry": { "type": "Point", "coordinates": [ -72.708459, -35.937406 ] } },
{ "type": "Feature", "properties": { "NOMBRE": "CURICO", "CATEGORIA": "Cd", "POB_TOT": 93447.0, "HOM_TOT": 45202.0, "MUJ_TOT": 48245.0, "VIV_TOT": 27417.0 }, "geometry": { "type": "Point", "coordinates": [ -71.240234, -34.978782 ] } },
{ "type": "Feature", "properties": { "NOMBRE": "SARMIENTO", "CATEGORIA": "Pb", "POB_TOT": 3888.0, "HOM_TOT": 1960.0, "MUJ_TOT": 1928.0, "VIV_TOT": 1098.0 }, "geometry": { "type": "Point", "coordinates": [ -71.197073, -34.940164 ] } },
{ "type": "Feature", "properties": { "NOMBRE": "VILLA LOS NICHES", "CATEGORIA": "Pb", "POB_TOT": 2006.0, "HOM_TOT": 1005.0, "MUJ_TOT": 1001.0, "VIV_TOT": 523.0 }, "geometry": { "type": "Point", "coordinates": [ -71.331099, -34.936378 ] } },
{ "type": "Feature", "properties": { "NOMBRE": "SAN ALBERTO", "CATEGORIA": "Pb", "POB_TOT": 1165.0, "HOM_TOT": 612.0, "MUJ_TOT": 553.0, "VIV_TOT": 323.0 }, "geometry": { "type": "Point", "coordinates": [ -71.10015, -34.96288 ] } },
{ "type": "Feature", "properties": { "NOMBRE": "HUALAE", "CATEGORIA": "Cd", "POB_TOT": 5198.0, "HOM_TOT": 2619.0, "MUJ_TOT": 2579.0, "VIV_TOT": 1647.0 }, "geometry": { "type": "Point", "coordinates": [ -71.803596, -34.974238 ] } },
{ "type": "Feature", "properties": { "NOMBRE": "LICANTEN", "CATEGORIA": "Pb", "POB_TOT": 3629.0, "HOM_TOT": 1911.0, "MUJ_TOT": 1718.0, "VIV_TOT": 1093.0 }, "geometry": { "type": "Point", "coordinates": [ -71.984569, -34.984839 ] } },
{ "type": "Feature", "properties": { "NOMBRE": "ILOCA", "CATEGORIA": "Pb", "POB_TOT": 345.0, "HOM_TOT": 188.0, "MUJ_TOT": 157.0, "VIV_TOT": 391.0 }, "geometry": { "type": "Point", "coordinates": [ -72.186743, -34.946222 ] } },
{ "type": "Feature", "properties": { "NOMBRE": "MOLINA", "CATEGORIA": "Cd", "POB_TOT": 27203.0, "HOM_TOT": 13346.0, "MUJ_TOT": 13857.0, "VIV_TOT": 7506.0 }, "geometry": { "type": "Point", "coordinates": [ -71.283395, -35.115836 ] } },
{ "type": "Feature", "properties": { "NOMBRE": "ITAHUE UNO", "CATEGORIA": "Pb", "POB_TOT": 1029.0, "HOM_TOT": 520.0, "MUJ_TOT": 509.0, "VIV_TOT": 317.0 }, "geometry": { "type": "Point", "coordinates": [ -71.358358, -35.137795 ] } },
{ "type": "Feature", "properties": { "NOMBRE": "RAUCO", "CATEGORIA": "Pb", "POB_TOT": 3114.0, "HOM_TOT": 1549.0, "MUJ_TOT": 1565.0, "VIV_TOT": 874.0 }, "geometry": { "type": "Point", "coordinates": [ -71.318226, -34.924263 ] } },
{ "type": "Feature", "properties": { "NOMBRE": "ROMERAL", "CATEGORIA": "Pb", "POB_TOT": 3675.0, "HOM_TOT": 1813.0, "MUJ_TOT": 1862.0, "VIV_TOT": 1062.0 }, "geometry": { "type": "Point", "coordinates": [ -71.133468, -34.961366 ] } },
{ "type": "Feature", "properties": { "NOMBRE": "SAGRADA  FAMILIA", "CATEGORIA": "Pb", "POB_TOT": 2910.0, "HOM_TOT": 1457.0, "MUJ_TOT": 1453.0, "VIV_TOT": 829.0 }, "geometry": { "type": "Point", "coordinates": [ -71.332613, -35.004527 ] } },
{ "type": "Feature", "properties": { "NOMBRE": "VILLA PRAT", "CATEGORIA": "Pb", "POB_TOT": 2170.0, "HOM_TOT": 1136.0, "MUJ_TOT": 1034.0, "VIV_TOT": 710.0 }, "geometry": { "type": "Point", "coordinates": [ -71.606722, -35.090848 ] } },
{ "type": "Feature", "properties": { "NOMBRE": "TENO", "CATEGORIA": "Cd", "POB_TOT": 6729.0, "HOM_TOT": 3351.0, "MUJ_TOT": 3378.0, "VIV_TOT": 1923.0 }, "geometry": { "type": "Point", "coordinates": [ -71.166785, -34.871258 ] } },
{ "type": "Feature", "properties": { "NOMBRE": "LLICO", "CATEGORIA": "Pb", "POB_TOT": 988.0, "HOM_TOT": 504.0, "MUJ_TOT": 484.0, "VIV_TOT": 359.0 }, "geometry": { "type": "Point", "coordinates": [ -72.082248, -34.762977 ] } },
{ "type": "Feature", "properties": { "NOMBRE": "LAGO VICHUQUEN", "CATEGORIA": "Pb", "POB_TOT": 380.0, "HOM_TOT": 205.0, "MUJ_TOT": 175.0, "VIV_TOT": 430.0 }, "geometry": { "type": "Point", "coordinates": [ -71.993655, -34.881859 ] } },
{ "type": "Feature", "properties": { "NOMBRE": "LINARES", "CATEGORIA": "Cd", "POB_TOT": 65133.0, "HOM_TOT": 30997.0, "MUJ_TOT": 34136.0, "VIV_TOT": 19063.0 }, "geometry": { "type": "Point", "coordinates": [ -71.590821, -35.84957 ] } },
{ "type": "Feature", "properties": { "NOMBRE": "VARA GRUESA", "CATEGORIA": "Pb", "POB_TOT": 1619.0, "HOM_TOT": 807.0, "MUJ_TOT": 812.0, "VIV_TOT": 457.0 }, "geometry": { "type": "Point", "coordinates": [ -71.501471, -35.828368 ] } },
{ "type": "Feature", "properties": { "NOMBRE": "LAS OBRAS", "CATEGORIA": "Pb", "POB_TOT": 1472.0, "HOM_TOT": 751.0, "MUJ_TOT": 721.0, "VIV_TOT": 459.0 }, "geometry": { "type": "Point", "coordinates": [ -71.684715, -35.848055 ] } },
{ "type": "Feature", "properties": { "NOMBRE": "COLBUN", "CATEGORIA": "Pb", "POB_TOT": 3679.0, "HOM_TOT": 1839.0, "MUJ_TOT": 1840.0, "VIV_TOT": 1168.0 }, "geometry": { "type": "Point", "coordinates": [ -71.405305, -35.695857 ] } },
{ "type": "Feature", "properties": { "NOMBRE": "PANIMAVIDA", "CATEGORIA": "Pb", "POB_TOT": 1473.0, "HOM_TOT": 737.0, "MUJ_TOT": 736.0, "VIV_TOT": 482.0 }, "geometry": { "type": "Point", "coordinates": [ -71.417421, -35.760219 ] } },
{ "type": "Feature", "properties": { "NOMBRE": "LONGAVI", "CATEGORIA": "Cd", "POB_TOT": 6206.0, "HOM_TOT": 3012.0, "MUJ_TOT": 3194.0, "VIV_TOT": 1694.0 }, "geometry": { "type": "Point", "coordinates": [ -71.683957, -35.966937 ] } },
{ "type": "Feature", "properties": { "NOMBRE": "PARRAL", "CATEGORIA": "Cd", "POB_TOT": 26397.0, "HOM_TOT": 12846.0, "MUJ_TOT": 13551.0, "VIV_TOT": 7905.0 }, "geometry": { "type": "Point", "coordinates": [ -71.826312, -36.146395 ] } },
{ "type": "Feature", "properties": { "NOMBRE": "RETIRO", "CATEGORIA": "Pb", "POB_TOT": 3329.0, "HOM_TOT": 1593.0, "MUJ_TOT": 1736.0, "VIV_TOT": 918.0 }, "geometry": { "type": "Point", "coordinates": [ -71.760435, -36.052501 ] } },
{ "type": "Feature", "properties": { "NOMBRE": "COPIHUE", "CATEGORIA": "Pb", "POB_TOT": 1379.0, "HOM_TOT": 693.0, "MUJ_TOT": 686.0, "VIV_TOT": 437.0 }, "geometry": { "type": "Point", "coordinates": [ -71.802082, -36.092633 ] } },
{ "type": "Feature", "properties": { "NOMBRE": "SAN JAVIER", "CATEGORIA": "Cd", "POB_TOT": 20524.0, "HOM_TOT": 9756.0, "MUJ_TOT": 10768.0, "VIV_TOT": 6171.0 }, "geometry": { "type": "Point", "coordinates": [ -71.73204, -35.592498 ] } },
{ "type": "Feature", "properties": { "NOMBRE": "BOBADILLA", "CATEGORIA": "Pb", "POB_TOT": 1480.0, "HOM_TOT": 751.0, "MUJ_TOT": 729.0, "VIV_TOT": 421.0 }, "geometry": { "type": "Point", "coordinates": [ -71.699102, -35.561074 ] } },
{ "type": "Feature", "properties": { "NOMBRE": "VILLA ALEGRE", "CATEGORIA": "Cd", "POB_TOT": 5456.0, "HOM_TOT": 2614.0, "MUJ_TOT": 2842.0, "VIV_TOT": 1700.0 }, "geometry": { "type": "Point", "coordinates": [ -71.744913, -35.674655 ] } },
{ "type": "Feature", "properties": { "NOMBRE": "YERBAS BUENAS", "CATEGORIA": "Pb", "POB_TOT": 1595.0, "HOM_TOT": 778.0, "MUJ_TOT": 817.0, "VIV_TOT": 461.0 }, "geometry": { "type": "Point", "coordinates": [ -71.590064, -35.752269 ] } }
]
}
